City,Country,Lat,Lng,Date,Max Temp,Humidity,Cloudiness,Wind Speed
Santa Isabel,BR,-23.32,-46.22,1607623292,82.4,51,40,8.05
Santiago del Estero,AR,-27.8,-64.26,1607623313,107.01,21,0,11.01
Lavrentiya,RU,65.58,-171.0,1607623300,7.2,89,0,7.34
Bredasdorp,ZA,-34.53,20.04,1607623274,66.2,72,46,5.82
Tarashcha,UA,49.56,30.49,1607623313,33.78,95,100,17.69
Castro,BR,-24.79,-50.01,1607623283,74.03,67,57,1.48
Praia da Vitória,PT,38.73,-27.07,1607623314,68.0,77,40,10.16
Rikitea,PF,-23.12,-134.97,1607623279,76.66,80,49,13.87
Jamestown,US,42.1,-79.24,1607623118,41.0,74,90,3.36
Khani,GE,41.96,42.96,1607623314,48.2,71,0,31.09
Ituporanga,BR,-27.41,-49.6,1607623254,89.01,88,57,11.99
Chokurdakh,RU,70.63,147.92,1607623272,-29.22,86,54,7.18
Vaini,TO,-21.2,-175.2,1607623314,77.0,83,75,9.17
Nikolskoye,RU,59.7,30.79,1607623302,19.99,67,0,11.18
Tura,IN,25.52,90.22,1607623315,60.12,72,3,2.91
Gunnedah,AU,-30.98,150.25,1607623315,66.2,68,98,11.41
Cape Town,ZA,-33.93,18.42,1607622980,71.01,64,40,9.17
George Town,MY,5.41,100.34,1607623262,80.6,88,20,4.7
Albany,US,42.6,-73.97,1607623228,43.0,55,49,3.0
Dunedin,NZ,-45.87,170.5,1607623315,48.0,89,78,4.0
Hilo,US,19.73,-155.09,1607623281,69.8,88,90,9.17
Lupiro,TZ,-8.38,36.67,1607623316,81.64,62,100,8.39
Mataura,NZ,-46.19,168.86,1607623316,44.01,93,100,1.99
Sinazongwe,ZM,-17.26,27.46,1607623316,81.03,72,100,1.19
Santa Cruz de la Sierra,BO,-17.8,-63.17,1607623069,89.6,49,20,13.87
Punta Arenas,CL,-53.15,-70.92,1607623023,55.4,66,75,9.17
Kloulklubed,PW,7.04,134.26,1607623284,77.0,94,75,8.57
São Miguel do Araguaia,BR,-13.28,-50.16,1607623317,88.54,47,93,6.91
São João da Barra,BR,-21.64,-41.05,1607623281,80.6,74,75,11.41
Port Elizabeth,ZA,-33.92,25.57,1607623317,66.2,93,20,5.82
Port Alfred,ZA,-33.59,26.89,1607623282,68.52,88,98,10.92
Hobart,AU,-42.88,147.33,1607623202,48.2,66,90,9.17
Worthington,US,40.09,-83.02,1607623310,51.01,61,1,9.17
Lebu,CL,-37.62,-73.65,1607623289,60.39,67,31,9.28
Bluff,NZ,-46.6,168.33,1607623291,44.01,93,100,1.99
Alofi,NU,-19.06,-169.92,1607623318,75.2,100,6,8.05
Nizhniy Odes,RU,63.64,54.86,1607623318,15.76,94,0,7.65
Mar del Plata,AR,-38.0,-57.56,1607623286,69.8,68,40,13.87
Srednekolymsk,RU,67.45,153.68,1607623318,-21.12,86,97,3.0
Guarapari,BR,-20.67,-40.5,1607623319,79.0,94,90,8.05
Torbay,CA,47.67,-52.73,1607623295,37.99,86,90,8.05
Barrow,US,71.29,-156.79,1607623278,-2.2,70,90,14.99
Alice Springs,AU,-23.7,133.88,1607623319,64.4,88,90,5.82
Āsosa,ET,10.07,34.53,1607623319,72.64,32,69,4.12
Richards Bay,ZA,-28.78,32.04,1607623320,73.02,94,63,4.23
Kozhva,RU,65.11,57.05,1607623320,14.56,96,46,7.34
Yellowknife,CA,62.46,-114.35,1607623287,5.0,84,75,8.05
San Policarpo,PH,12.18,125.51,1607623305,81.37,83,4,6.64
Atuona,PF,-9.8,-139.03,1607623276,78.48,77,0,20.15
Tilichiki,RU,60.47,166.1,1607623321,21.07,96,100,15.41
Portland,US,45.52,-122.68,1607623210,39.99,93,75,5.82
Safi,MA,32.3,-9.24,1607623321,63.05,83,29,11.63
Ushuaia,AR,-54.8,-68.3,1607623201,62.6,39,20,10.29
Saskylakh,RU,71.92,114.08,1607623277,-19.01,86,100,14.32
Airai,TL,-8.93,125.41,1607623294,63.9,96,95,1.21
Carnarvon,AU,-24.87,113.63,1607623322,71.6,100,75,12.75
Busselton,AU,-33.65,115.33,1607623275,70.0,64,24,5.99
Ossora,RU,59.24,163.07,1607623322,24.58,98,100,14.85
New Norfolk,AU,-42.78,147.06,1607623277,48.2,66,90,9.17
Raudeberg,NO,61.99,5.14,1607623322,43.0,70,73,9.37
Poum,NC,-20.23,164.02,1607623322,80.76,76,95,20.22
Coyhaique,CL,-45.58,-72.07,1607623296,57.2,58,75,9.17
Vila Franca do Campo,PT,37.72,-25.43,1607623291,62.6,93,40,12.75
Phoenix,US,33.45,-112.07,1607623202,55.99,87,90,5.82
Faanui,PF,-16.48,-151.75,1607623323,79.9,75,100,14.0
Rio Grande,BR,-32.03,-52.1,1607623147,84.2,51,0,8.05
Udala,ES,43.08,-2.51,1607623324,48.0,96,100,1.92
Mahébourg,MU,-20.41,57.7,1607623324,75.2,73,75,10.29
Gouré,NE,13.98,10.27,1607623324,86.0,16,77,1.99
Ahipara,NZ,-35.17,173.17,1607623324,61.61,86,93,7.49
Fløng,DK,55.66,12.19,1607623324,37.0,100,100,10.29
Saint-Philippe,RE,-21.36,55.77,1607623277,75.2,73,75,18.34
Erzin,TR,36.96,36.2,1607623271,59.0,64,0,5.08
Guerrero Negro,MX,27.98,-114.06,1607623325,67.57,61,1,8.16
Avarua,CK,-21.21,-159.78,1607623221,78.8,83,11,9.17
Esperance,AU,-33.87,121.9,1607623325,62.6,82,40,11.41
Hermanus,ZA,-34.42,19.23,1607623271,66.99,79,17,1.99
Pitimbu,BR,-7.47,-34.81,1607623325,86.0,62,40,12.75
Hambantota,LK,6.12,81.12,1607623224,76.73,80,99,13.58
Los Llanos de Aridane,ES,28.66,-17.92,1607623326,68.0,64,40,12.75
Qaanaaq,GL,77.48,-69.36,1607623294,10.76,91,100,1.99
Anadyr,RU,64.75,177.48,1607623326,23.0,73,75,13.42
Takoradze,GH,4.88,-1.76,1607623326,80.6,81,37,7.96
Swan River,CA,52.11,-101.27,1607623326,26.6,86,93,4.7
Fortuna,US,40.6,-124.16,1607623294,48.0,98,33,1.99
Srandakan,ID,-7.94,110.25,1607623326,78.51,87,100,6.96
Wanaka,NZ,-44.7,169.15,1607623170,52.0,83,98,1.01
Lesnoye,RU,58.28,35.52,1607623327,17.69,94,0,5.95
Cache Creek,CA,50.81,-121.32,1607623327,27.0,100,20,13.87
Agirish,RU,61.92,63.02,1607623327,17.82,88,53,10.63
Kiunga,PG,-6.12,141.29,1607623327,72.93,98,100,2.01
Deputatsky,RU,69.3,139.9,1607623328,-32.91,82,28,4.27
Ribeira Grande,PT,38.52,-28.7,1607623300,66.2,88,75,16.11
Basti,IN,26.8,82.72,1607623036,65.41,50,0,3.24
Bandarbeyla,SO,9.49,50.81,1607623328,75.92,58,17,20.42
Cidreira,BR,-30.18,-50.21,1607623328,74.01,73,17,11.88
San Quintín,MX,30.48,-115.95,1607623328,63.81,68,0,11.59
Constitución,CL,-35.33,-72.42,1607623292,64.26,60,47,13.47
Huesca,ES,42.14,-0.41,1607623329,46.99,75,0,16.11
Mareeba,AU,-17.0,145.43,1607623329,78.8,78,85,6.93
Tuktoyaktuk,CA,69.45,-133.04,1607623219,-11.2,83,90,12.75
Saldanha,ZA,-33.01,17.94,1607623295,68.0,64,10,11.41
Krasnyy Chikoy,RU,50.36,108.75,1607623329,-9.13,86,20,2.33
Ilulissat,GL,69.22,-51.1,1607623330,21.2,37,40,13.87
Khatanga,RU,71.97,102.5,1607623283,-31.7,84,95,8.14
Tiksi,RU,71.69,128.87,1607623330,-23.49,86,96,6.15
Tezu,IN,27.92,96.17,1607623330,65.12,46,74,2.59
Arraial do Cabo,BR,-22.97,-42.03,1607623212,77.0,83,75,8.05
East London,ZA,-33.02,27.91,1607623303,69.8,83,20,9.17
Lundazi,ZM,-12.29,33.18,1607623330,72.88,64,97,4.94
Hasaki,JP,35.73,140.83,1607623331,41.0,100,40,5.82
Lompoc,US,34.64,-120.46,1607623039,55.0,81,40,4.7
Genhe,CN,50.78,121.52,1607623331,-12.06,87,28,4.47
Igarka,RU,67.47,86.58,1607623331,-28.44,84,10,4.61
Kemijärvi,FI,66.71,27.43,1607623331,28.31,97,100,9.4
Mundo Nuevo (Ojo de Agua),MX,18.7,-95.5,1607623331,72.9,64,0,5.28
Upernavik,GL,72.79,-56.15,1607623332,24.69,98,100,7.25
Kapaa,US,22.08,-159.32,1607623275,71.6,100,90,10.29
Tasiilaq,GL,65.61,-37.64,1607623332,15.8,47,5,8.05
Cockburn Town,TC,21.46,-71.14,1607623164,78.8,54,40,10.29
Vostok,RU,46.49,135.88,1607623332,8.74,97,100,4.12
Klamath Falls,US,42.22,-121.78,1607623045,19.4,92,1,5.32
Syracuse,IT,37.09,15.28,1607623256,53.6,76,20,12.75
Caravelas,BR,-17.71,-39.25,1607623333,83.23,65,1,13.65
Puerto Ayora,EC,-0.74,-90.35,1607623292,77.0,73,75,9.17
Mackay,AU,-21.15,149.2,1607623333,77.0,65,40,9.17
Ponta do Sol,PT,32.67,-17.1,1607623294,64.4,68,20,6.93
Saint Paul Harbor,US,57.79,-152.41,1607623090,21.2,85,1,4.7
Shumikha,RU,55.23,63.3,1607623333,9.21,95,0,4.65
Utinga,BR,-5.82,-35.4,1607623334,86.0,58,40,16.11
Kieta,PG,-6.22,155.63,1607623291,78.49,75,91,4.21
Yangi Marg`ilon,UZ,40.43,71.72,1607623334,33.8,80,40,4.7
Mahibadhoo,MV,3.78,72.97,1607623334,82.22,75,72,9.15
Natal,BR,-5.79,-35.21,1607623193,86.0,62,40,14.99
Ancud,CL,-41.87,-73.82,1607623293,62.01,82,90,12.75
Feicheng,CN,35.26,117.97,1607623334,39.52,73,83,1.57
Prince Rupert,CA,54.32,-130.32,1607623205,46.4,48,90,6.93
Mandalī,IQ,33.75,45.55,1607623335,59.86,57,0,7.74
Maragogi,BR,-9.01,-35.22,1607623264,82.0,70,34,14.12
Kysyl-Syr,RU,63.9,122.76,1607623335,-38.79,81,78,3.94
Sept-Îles,CA,50.2,-66.38,1607623224,33.01,80,99,2.24
Klaksvík,FO,62.23,-6.59,1607623335,44.6,93,100,24.16
Río Gallegos,AR,-51.62,-69.22,1607623335,59.0,62,75,19.46
Souillac,MU,-20.52,57.52,1607623336,75.2,73,75,10.29
Vestmanna,FO,62.16,-7.17,1607623336,44.6,93,100,24.16
Kaitangata,NZ,-46.28,169.85,1607623279,46.0,94,100,8.99
Kaka,TM,37.35,59.61,1607623336,29.95,96,20,3.06
Hay River,CA,60.82,-115.8,1607623336,10.4,85,100,12.75
Hithadhoo,MV,-0.6,73.08,1607623286,82.15,74,62,11.21
Ilhabela,BR,-23.78,-45.36,1607623249,76.28,80,64,5.95
Barcarena,BR,-1.51,-48.63,1607623337,86.0,74,75,12.75
Vila Velha,BR,-20.33,-40.29,1607623161,79.0,94,90,8.05
Kushiro,JP,42.98,144.37,1607623337,33.06,92,6,8.7
Nouadhibou,MR,20.93,-17.03,1607623338,75.2,41,0,11.41
Osakarovka,KZ,50.56,72.57,1607623338,3.22,94,97,6.31
Inverness,GB,57.48,-4.22,1607623046,45.0,87,75,2.24
Cayenne,GF,4.93,-52.33,1607623208,87.8,66,90,16.11
Muros,ES,42.78,-9.06,1607623338,60.01,95,100,14.0
Genç,TR,38.75,40.56,1607623339,37.33,76,51,1.79
Bonavista,CA,48.65,-53.11,1607623339,35.01,88,99,1.12
Hong Kong,HK,22.29,114.16,1607623278,69.01,77,95,8.99
Kaeo,NZ,-35.1,173.78,1607623339,64.0,84,87,7.0
Honiara,SB,-9.43,159.95,1607623339,75.2,94,40,5.82
Elko,US,41.0,-115.5,1607623340,33.01,54,1,2.64
Betsiamites,CA,48.94,-68.65,1607623340,28.4,68,90,6.93
Caucaia,BR,-3.74,-38.65,1607623340,86.0,62,20,16.11
Saint George,US,37.1,-113.58,1607623124,52.0,22,1,1.48
Iranshahr,IR,27.2,60.68,1607623340,60.8,34,20,4.7
Lima,PE,-12.04,-77.03,1607623322,71.01,73,90,9.17
Guangyuan,CN,32.44,105.82,1607623341,39.0,71,64,5.99
Biak,ID,-0.91,122.88,1607623341,78.01,81,44,1.12
Poya,NC,-21.35,165.15,1607623341,77.13,80,79,4.74
Chifeng,CN,42.27,118.96,1607623342,10.96,89,47,4.16
Birao,CF,10.28,22.79,1607623342,79.48,17,16,5.7
Nhulunbuy,AU,-12.23,136.77,1607623342,78.8,83,76,5.37
Bambous Virieux,MU,-20.34,57.76,1607623277,75.99,73,75,10.29
Dossor,KZ,47.53,52.98,1607623343,21.11,90,63,4.03
Batemans Bay,AU,-35.72,150.18,1607623343,53.01,84,75,1.99
Clyde River,CA,70.47,-68.59,1607623301,14.0,85,75,6.93
Coronado,US,32.69,-117.18,1607623246,62.01,54,75,4.7
Pangody,RU,65.85,74.49,1607623343,-22.02,87,3,3.83
Kenai,US,60.55,-151.26,1607623343,10.4,92,90,1.77
Rocha,UY,-34.48,-54.33,1607623295,91.99,35,0,4.79
Karratha,AU,-20.74,116.85,1607623344,75.63,92,100,12.44
Kruisfontein,ZA,-34.0,24.73,1607623344,66.0,92,66,3.0
Chui,UY,-33.7,-53.46,1607623281,84.99,44,0,8.14
Narsaq,GL,60.92,-46.05,1607623344,17.6,44,5,2.24
Huarmey,PE,-10.07,-78.15,1607623344,73.35,68,100,9.24
Sorong,ID,-0.88,131.25,1607623345,82.15,82,70,11.43
San Cristobal,VE,7.77,-72.22,1607623271,84.2,70,40,11.41
Bara,NG,10.37,10.73,1607623345,79.81,24,100,2.77
Harper,LR,4.38,-7.72,1607623345,80.53,81,29,8.41
Kibakwe,TZ,-6.72,36.37,1607623345,69.58,79,89,5.64
Soller,ES,39.77,2.72,1607623345,60.01,72,0,12.75
Matagami,CA,49.75,-77.63,1607623345,28.4,92,90,5.82
Oranjemund,NA,-28.55,16.43,1607623292,63.55,84,1,10.29
Te Anau,NZ,-45.42,167.72,1607623301,37.96,93,100,5.3
Coquimbo,CL,-29.95,-71.34,1607623289,64.4,63,40,10.29
Mengcheng,CN,33.26,116.57,1607623346,41.11,85,47,1.3
Beloha,MG,-25.17,45.05,1607623346,74.95,78,40,7.45
Korla,CN,41.76,86.15,1607623305,23.13,92,15,2.59
Warri,NG,5.52,5.75,1607623347,78.67,86,99,5.68
Mahon,ES,39.89,4.27,1607623347,53.6,81,40,9.17
Gobabis,NA,-22.45,18.97,1607623347,87.03,13,0,4.45
Zhuangyuan,CN,37.3,120.83,1607623347,35.01,86,90,3.06
Morehead,US,37.27,-87.18,1607623347,64.99,33,1,8.05
Ayan,RU,56.45,138.17,1607623347,6.69,83,45,8.97
Semey,KZ,50.41,80.23,1607623347,19.4,85,90,13.42
Thinadhoo,MV,0.53,72.93,1607623348,82.58,69,1,7.76
Bethel,US,41.37,-73.41,1607623149,46.99,49,1,9.17
Beringovskiy,RU,63.05,179.32,1607623280,25.66,94,100,14.83
Butaritari,KI,3.07,172.79,1607623273,82.02,75,62,10.67
Monywa,MM,22.12,95.13,1607623348,68.72,74,0,1.72
Hamilton,US,39.18,-84.53,1607623245,55.0,50,75,11.41
Yetkul',RU,54.82,61.59,1607623348,5.0,92,0,6.71
Sobolevo,RU,54.43,31.9,1607623288,24.03,92,54,12.95
Olafsvik,IS,64.89,-23.71,1607623349,38.62,91,100,22.15
Oistins,BB,13.07,-59.53,1607623148,86.0,62,40,18.34
Camacha,PT,33.08,-16.33,1607623349,64.4,72,75,11.41
Kabinda,CD,-6.13,24.48,1607623284,68.92,93,87,2.51
Siddāpur,IN,14.33,74.88,1607623350,67.42,78,25,4.79
Bouca,CF,6.51,18.27,1607623350,82.04,24,100,3.36
Aklavik,CA,68.22,-135.01,1607623350,-4.0,83,75,3.36
Salalah,OM,17.02,54.09,1607623299,78.8,19,0,11.41
Mago,RU,53.25,140.18,1607623350,3.34,93,100,0.2
Maningrida,AU,-12.07,134.27,1607623350,82.11,75,93,5.06
Thompson,CA,55.74,-97.86,1607623351,5.0,77,20,8.05
Kisesa,TZ,-3.08,34.15,1607623351,67.68,82,93,8.08
College,US,64.86,-147.8,1607623286,1.99,77,90,1.25
Shankargarh,IN,25.18,81.62,1607623351,66.96,47,0,2.04
Aras,ES,42.56,-2.36,1607623351,51.8,71,75,4.7
Sitka,US,57.05,-135.33,1607623293,42.8,56,90,13.87
São Filipe,CV,14.9,-24.5,1607623352,75.27,69,81,11.77
Abnūb,EG,27.27,31.15,1607623232,68.0,37,0,9.17
Kumluca,TR,36.37,30.29,1607623352,58.3,75,85,1.21
Boké,GN,10.94,-14.3,1607623352,89.37,45,0,8.16
Orán,AR,-23.13,-64.33,1607623352,104.0,31,13,3.0
Lüderitz,NA,-26.65,15.16,1607623285,63.77,77,22,16.17
Kungurtug,RU,50.6,97.52,1607623285,-5.89,86,99,1.39
Norman Wells,CA,65.28,-126.83,1607623052,3.2,77,90,8.05
Kiruna,SE,67.86,20.23,1607623353,23.0,100,1,9.17
Brae,GB,60.4,-1.35,1607623353,48.2,76,75,26.4
Marrakesh,MA,31.63,-8.01,1607623166,64.4,59,33,8.05
Berlevåg,NO,70.86,29.09,1607623353,33.8,81,75,11.41
Labuhan,ID,-6.88,112.21,1607623353,80.35,84,100,11.25
Rome,US,43.21,-75.46,1607623082,41.0,80,90,8.05
Longyearbyen,SJ,78.22,15.64,1607623354,15.8,66,75,9.17
Mackenzie,CA,55.3,-123.17,1607623349,26.6,92,90,2.24
Obo,CF,5.4,26.49,1607623354,82.89,38,90,4.36
San-Pédro,CI,4.75,-6.64,1607623354,80.62,80,22,6.35
Rumford,US,44.55,-70.55,1607623354,34.0,78,56,5.99
Petra,JO,30.32,35.48,1607623354,51.31,54,53,3.27
Paramonga,PE,-10.67,-77.83,1607623354,72.61,69,93,10.49
Whitehorse,CA,60.72,-135.05,1607623303,10.4,85,75,3.36
Buala,SB,-8.14,159.59,1607623355,79.93,79,47,4.94
Boa Vista,BR,2.82,-60.67,1607623121,89.6,49,40,11.41
Reconquista,AR,-29.15,-59.65,1607623219,92.01,33,0,11.59
San Patricio,US,28.02,-97.52,1607623283,77.0,69,40,18.34
Chokwé,MZ,-24.53,32.98,1607623355,85.03,47,0,15.59
Adrar,MR,20.5,-10.07,1607623282,70.0,19,67,9.04
Severo-Kuril'sk,RU,50.68,156.12,1607623356,25.92,90,88,16.51
Gazojak,TM,41.19,61.4,1607623356,29.84,76,94,7.4
Acandí,CO,8.51,-77.28,1607623356,85.6,65,100,6.85
Chake Chake,TZ,-5.25,39.77,1607623356,80.19,81,100,11.12
Husavik,IS,66.04,-17.34,1607623356,39.2,80,90,9.17
Opuwo,NA,-18.06,13.84,1607623356,78.85,19,5,14.88
Mrągowo,PL,53.86,21.31,1607623357,28.4,100,90,8.05
Barroso,BR,-21.19,-43.98,1607623357,75.2,60,75,4.7
Hamada,JP,34.88,132.08,1607623357,47.75,66,100,3.69
Vao,NC,-22.67,167.48,1607623357,77.45,84,47,19.64
Victor Harbor,AU,-35.57,138.62,1607623357,55.99,79,1,13.24
Jidong,CN,45.22,131.08,1607623357,13.24,92,5,7.31
Bathsheba,BB,13.22,-59.52,1607623358,86.0,62,40,18.34
Atar,MR,20.52,-13.05,1607623358,74.43,17,89,9.42
Cabo San Lucas,MX,22.89,-109.91,1607623102,80.01,78,75,5.82
Shubarshi,KZ,48.59,57.19,1607623358,14.16,96,71,5.7
Iqaluit,CA,63.75,-68.51,1607623358,23.0,73,40,13.87
Saint Anthony,US,45.02,-93.22,1607623358,46.99,56,1,11.41
Byron Bay,AU,-28.65,153.62,1607623137,69.01,82,75,5.82
Laje,BR,-10.18,-40.97,1607623235,78.04,62,48,3.09
Ust'-Tarka,RU,55.57,75.7,1607623078,8.19,95,100,10.74
Kahului,US,20.89,-156.47,1607623202,73.99,77,20,4.7
Tautira,PF,-17.73,-149.15,1607623359,82.4,65,75,5.82
Hīt,IQ,33.64,42.83,1607623359,57.52,53,0,8.57
Port Hedland,AU,-20.32,118.57,1607623359,78.8,88,75,10.29
Port Blair,IN,11.67,92.75,1607623288,78.51,67,61,4.43
Sisimiut,GL,66.94,-53.67,1607623360,20.59,92,54,10.49
Gunupur,IN,19.08,83.82,1607623360,65.53,72,0,1.3
Kavaratti,IN,10.57,72.64,1607623360,82.96,78,0,15.43
São Félix do Xingu,BR,-6.64,-51.99,1607623360,72.36,89,99,1.45
The Valley,AI,18.22,-63.06,1607623215,86.0,69,75,12.75
Yumen,CN,40.28,97.2,1607623360,18.63,90,67,14.81
Goulburn,AU,-34.75,149.72,1607623210,51.01,79,58,5.01
Isangel,VU,-19.55,169.27,1607623361,78.93,83,98,14.5
Āsmār,AF,35.03,71.36,1607623361,46.17,47,0,11.5
Flensburg,DE,54.78,9.43,1607623361,37.99,93,100,11.41
Broken Hill,AU,-31.95,141.43,1607623362,66.2,25,84,14.99
Esim,GH,4.87,-2.24,1607623362,80.13,82,59,6.87
Havre-St-Pierre,CA,50.23,-63.6,1607623362,32.0,97,90,5.82
Mayo,US,38.89,-76.51,1607623362,52.0,66,1,4.7
Madang,PG,-5.22,145.8,1607623362,74.88,92,100,7.74
Noshiro,JP,40.2,140.02,1607623363,40.75,86,37,3.11
Inta,RU,66.03,60.17,1607623363,15.93,96,95,21.97
Zhangaözen,KZ,43.3,52.8,1607623363,20.01,92,1,7.61
Gamba,GA,-2.65,10.0,1607623363,78.08,85,83,7.0
Bengkulu,ID,-3.8,102.27,1607623363,74.01,88,84,4.38
Hofgeismar,DE,51.48,9.4,1607623363,37.99,93,90,4.7
Geraldton,AU,-28.77,114.6,1607623279,66.2,88,41,2.24
Anderson,US,34.53,-82.65,1607623221,63.0,33,1,8.05
Karpogory,RU,64.0,44.45,1607623364,19.09,91,0,7.07
Grand Gaube,MU,-20.01,57.66,1607623276,75.99,69,24,8.99
Hobyo,SO,5.35,48.53,1607623364,79.32,73,44,17.98
Bowen,AU,-20.02,148.23,1607623364,73.4,83,71,3.36
Issoire,FR,45.55,3.25,1607623080,41.0,86,90,3.36
Lady Lake,US,28.92,-81.92,1607623365,71.01,63,1,5.82
Vágur,FO,61.47,-6.81,1607623365,46.35,88,100,31.94
Kashgar,CN,39.45,75.98,1607623290,26.6,79,33,8.95
Leh,IN,34.17,77.58,1607623365,12.81,81,29,0.4
Mosquera,CO,4.71,-74.23,1607623285,64.4,55,75,4.7
Horki,BY,54.29,30.98,1607623366,23.11,95,68,13.49
Letnyaya Stavka,RU,45.43,43.45,1607623366,29.71,96,0,16.22
Leningradskiy,RU,69.38,178.42,1607623366,0.3,89,0,6.98
Katsuura,JP,35.13,140.3,1607623276,46.4,81,0,5.82
Vīsāvadar,IN,21.38,70.68,1607623367,73.58,72,76,3.85
Naryan-Mar,RU,67.67,53.09,1607623367,24.31,96,84,20.89
Buseresere,TZ,-3.02,31.87,1607623367,65.93,79,65,3.0
Vestmannaeyjar,IS,63.44,-20.27,1607623367,44.6,87,90,24.16
Sioux Lookout,CA,50.1,-91.92,1607623360,32.0,96,90,6.93
Mount Isa,AU,-20.73,139.5,1607623254,86.0,13,97,13.87
Lichuan,CN,30.3,108.85,1607623368,38.93,91,80,2.06
Bilma,NE,18.69,12.92,1607623287,78.78,17,37,7.81
Dikson,RU,73.51,80.55,1607623290,-12.62,90,72,13.69
Mumbwa,ZM,-14.98,27.06,1607623368,67.24,88,100,4.23
Banda Aceh,ID,5.56,95.32,1607623368,78.22,78,97,3.78
Sitges,ES,41.24,1.81,1607623369,55.99,57,10,1.99
Jatai,BR,-17.88,-51.71,1607623369,81.95,57,100,6.55
Pontypridd,GB,51.6,-3.34,1607623369,46.99,95,100,5.99
Boddam,GB,57.47,-1.78,1607623369,45.0,87,90,24.16
Boussé,BF,12.66,-1.89,1607623334,96.8,13,14,5.82
Innisfail,AU,-17.53,146.03,1607623369,75.0,87,75,3.44
Tabou,CI,4.42,-7.35,1607623369,80.47,82,32,7.4
Ternate,ID,0.8,127.4,1607623370,81.68,76,55,4.43
Khandyga,RU,62.67,135.6,1607623370,-25.28,86,100,2.37
Macon,US,39.87,-88.97,1607623168,57.99,54,1,9.17
Pangnirtung,CA,66.15,-65.71,1607623306,12.2,85,75,8.05
Maralal,KE,1.1,36.7,1607623370,58.8,86,69,7.0
Alta Floresta,BR,-9.88,-56.09,1607623370,84.2,70,90,9.17
Morgan City,US,29.7,-91.21,1607623371,73.0,60,1,6.93
North Bend,US,43.41,-124.22,1607623323,44.01,100,75,8.05
Touros,BR,-5.2,-35.46,1607623276,86.0,58,40,16.11
Pevek,RU,69.7,170.31,1607623285,-0.33,89,44,6.89
Oyama,JP,36.3,139.8,1607623371,51.01,93,20,1.12
Eskişehir,TR,39.78,30.52,1607623271,46.4,70,0,12.75
Ambatondrazaka,MG,-17.83,48.42,1607623372,68.7,87,89,5.46
Kirakira,SB,-10.45,161.92,1607623372,78.46,81,34,3.49
Vila,PT,42.03,-8.16,1607623372,54.0,96,100,5.99
Sibolga,ID,1.74,98.78,1607623372,75.07,82,93,3.62
Butterworth,MY,5.4,100.36,1607623372,80.6,88,20,4.7
Monrovia,LR,6.3,-10.8,1607623372,80.6,88,75,5.7
Port-Cartier,CA,50.03,-66.87,1607623373,33.01,80,91,2.24
Honningsvåg,NO,70.98,25.97,1607623373,37.4,86,75,10.29
Almaznyy,RU,48.04,40.05,1607623373,26.6,63,0,22.37
Zandvoort,NL,52.37,4.53,1607623373,35.01,82,0,12.75
Sakakah,SA,29.97,40.21,1607623334,57.2,47,0,5.82
General Roca,AR,-39.03,-67.58,1607623324,84.2,20,0,10.29
José Bonifácio,BR,-21.05,-49.69,1607623089,88.77,40,72,5.21
Sabha,LY,27.04,14.43,1607623374,55.74,39,0,5.55
Shipunovo,RU,52.16,82.22,1607623374,9.45,94,100,15.05
Wasilla,US,61.58,-149.44,1607623261,21.0,85,90,0.87
Toora-Khem,RU,52.47,96.11,1607623375,0.1,89,100,1.77
Tuatapere,NZ,-46.13,167.68,1607623303,44.01,93,100,1.99
Pisco,PE,-13.7,-76.22,1607623331,70.0,77,20,10.29
Beyneu,KZ,45.32,55.2,1607623375,19.8,93,0,6.31
Baykit,RU,61.67,96.37,1607623375,-27.42,79,24,1.34
Polyarny,RU,69.2,33.45,1607623375,32.0,97,75,4.47
Denham Springs,US,30.49,-90.96,1607623375,72.0,82,20,4.97
Sinnamary,GF,5.38,-52.95,1607623376,83.52,74,69,10.65
Manggar,ID,-2.88,108.27,1607623376,80.53,83,91,9.57
Kulhudhuffushi,MV,6.62,73.07,1607623376,82.49,76,46,13.38
Ostrovnoy,RU,68.05,39.51,1607623376,29.26,96,69,22.62
Oktyabr'skoye,RU,43.06,44.74,1607623376,30.2,86,90,4.47
Fare,PF,-16.7,-151.02,1607623376,80.15,76,94,12.62
Jatiroto,ID,-7.88,111.12,1607623376,75.24,89,96,0.98
Wattegama,LK,6.8,81.48,1607623377,71.85,89,97,4.63
Rawson,AR,-43.3,-65.1,1607623286,79.74,24,36,8.32
Kaabong,UG,3.48,34.15,1607623377,70.95,48,26,13.27
Sambava,MG,-14.27,50.17,1607623377,77.81,85,38,4.5
Kilindoni,TZ,-7.91,39.67,1607623377,82.63,78,42,13.96
Dul'durga,RU,50.68,113.59,1607623377,-1.23,81,3,10.07
Bāndarban,BD,22.2,92.23,1607623378,59.88,92,18,1.92
Goderich,CA,43.75,-81.72,1607623218,41.0,80,10,8.05
Kirovskiy,RU,45.09,133.51,1607623378,15.53,95,38,3.71
Iguape,BR,-24.71,-47.56,1607623125,78.44,73,27,10.25
Teguise,ES,29.06,-13.56,1607623378,68.0,64,75,17.22
Nacogdoches,US,31.6,-94.63,1607623378,71.01,52,1,9.17
Kokopo,PG,-4.35,152.26,1607623282,76.87,84,97,3.51
Khartoum,SD,15.55,32.53,1607623118,84.99,21,0,8.05
Nanortalik,GL,60.14,-45.24,1607623283,27.95,84,49,6.55
San Jose,US,37.34,-121.89,1607623201,59.0,57,75,4.7
Florida,US,28.75,-82.5,1607623379,71.01,52,40,5.82
Scarborough,GB,54.28,-0.4,1607623244,39.99,89,100,1.99
Hellvik,NO,59.92,5.78,1607623379,45.0,71,40,17.22
Kinna,SE,57.51,12.69,1607623380,37.99,84,90,10.29
Selma,US,36.57,-119.61,1607623380,51.01,39,1,4.7
Walvis Bay,NA,-22.96,14.51,1607623380,64.0,84,4,14.0
Clifton,US,40.86,-74.16,1607623220,50.0,55,40,12.75
Lagoa,PT,39.05,-27.98,1607623380,64.2,89,89,23.96
Atambua,ID,-9.11,124.89,1607623380,76.73,80,86,1.39
Stepnyak,KZ,52.83,70.78,1607623381,8.83,96,45,8.25
Palmer,US,42.16,-72.33,1607623381,45.0,45,40,17.22
Tessalit,ML,20.2,1.01,1607623381,72.59,18,0,10.38
Barretos,BR,-20.56,-48.57,1607623381,85.57,48,92,2.44
Nāthdwāra,IN,24.93,73.82,1607623381,65.91,34,1,3.8
Vanavara,RU,60.34,102.28,1607623381,-25.82,86,94,1.01
Van Buren,US,35.44,-94.35,1607623382,60.01,54,1,6.93
Luleå,SE,65.58,22.15,1607623382,35.6,93,0,9.17
Paamiut,GL,61.99,-49.67,1607623382,25.59,71,0,7.27
Porto-Novo,BJ,6.5,2.6,1607623277,84.2,83,20,10.29
Lixouri,GR,38.2,20.43,1607623382,53.6,87,75,2.24
Salym,RU,60.06,71.48,1607623383,8.28,95,59,4.94
Kutum,SD,14.2,24.67,1607623383,68.02,22,13,8.7
Nova Viçosa,BR,-17.89,-39.37,1607623176,83.75,65,8,14.25
Binga,ZW,-17.62,27.34,1607623383,78.62,70,100,3.42
Aksu,CN,41.12,80.26,1607623383,22.62,94,39,2.86
Chapais,CA,49.78,-74.85,1607623383,24.8,85,90,9.17
Vila do Maio,CV,15.13,-23.22,1607623384,78.8,54,40,17.22
Aswān,EG,24.09,32.91,1607623384,73.38,23,0,10.2
Yanji,CN,42.91,129.51,1607623251,24.24,85,0,2.8
Namatanai,PG,-3.67,152.43,1607623384,77.67,83,100,2.37
Serenje,ZM,-13.23,30.24,1607623384,64.78,94,100,5.73
Sungai Penuh,ID,-2.08,101.38,1607623385,64.08,90,98,2.08
The Pas,CA,53.83,-101.25,1607623385,19.4,92,90,10.29
Kumul,CN,42.8,93.45,1607623385,19.49,86,30,1.14
Meulaboh,ID,4.14,96.13,1607623385,73.87,94,100,9.4
Gelemso,ET,8.82,40.52,1607623385,60.53,41,96,3.96
Nemuro,JP,43.32,145.57,1607623385,39.09,75,13,12.17
Mehamn,NO,71.04,27.85,1607623385,33.8,80,20,6.93
Lerik,AZ,38.77,48.41,1607623386,39.2,93,90,6.93
Caraguatatuba,BR,-23.63,-45.49,1607623102,82.4,45,75,3.36
Boa Viagem,BR,-5.13,-39.73,1607623386,95.92,26,100,8.3
Yarmouth,US,41.71,-70.23,1607623386,46.4,62,40,8.05
Flinders,AU,-34.58,150.86,1607623386,61.0,60,85,1.01
Avera,US,33.19,-82.53,1607623387,64.0,48,1,4.7
Noumea,NC,-22.28,166.46,1607623321,75.2,83,0,3.36
Teluk Anson,MY,4.03,101.02,1607623387,77.0,94,40,2.1
Bosconia,CO,9.97,-73.88,1607623387,90.7,51,14,2.8
Durban,ZA,-29.86,31.03,1607623387,73.4,88,90,1.12
Naghadeh,IR,36.96,45.39,1607623387,37.65,80,95,1.48
Lucapa,AO,-8.42,20.74,1607623388,67.01,94,94,1.97
Thongwa,MM,16.76,96.53,1607623388,73.4,88,39,3.36
Yar-Sale,RU,66.83,70.83,1607623305,-6.84,91,82,8.3
Fandriana,MG,-20.23,47.38,1607623388,62.33,92,100,3.2
Usinsk,RU,65.99,57.53,1607623388,17.89,97,85,14.54
Batagay,RU,67.63,134.63,1607623388,-38.45,78,20,1.79
Asău,RO,46.43,26.4,1607623389,33.8,100,90,2.24
Coolum Beach,AU,-26.53,153.1,1607623389,71.01,86,90,6.35
Havøysund,NO,71.0,24.66,1607623389,37.4,86,75,10.29
Tripoli,LY,32.88,13.19,1607623287,59.5,41,32,17.0
Ambilobe,MG,-13.2,49.05,1607623390,77.27,85,93,1.88
Korem,ET,12.51,39.52,1607623390,53.44,69,46,3.38
Zhangjiakou,CN,40.81,114.88,1607623390,17.1,86,1,3.47
Hérouville-Saint-Clair,FR,49.21,-0.31,1607623390,44.6,100,75,9.17
Vaitape,PF,-16.52,-151.75,1607623390,80.73,74,100,13.91
Broome,US,42.25,-75.83,1607623260,41.0,74,90,8.05
Hengshui,CN,37.73,115.7,1607623391,34.36,81,68,2.51
Vrangel',RU,42.73,133.08,1607623391,32.99,82,0,10.54
Laas,IT,46.62,10.7,1607623391,33.01,85,5,3.36
Amalner,IN,21.05,75.07,1607623391,76.24,37,42,10.09
Anloga,GH,5.79,0.9,1607623391,84.2,74,20,12.75
Great Yarmouth,GB,52.61,1.73,1607623392,44.01,87,75,9.17
Zambezi,ZM,-13.54,23.1,1607623392,69.01,91,97,4.61
Kushima,JP,31.46,131.23,1607623392,44.01,81,57,5.99
Alakurtti,RU,66.97,30.35,1607623392,30.0,95,100,5.99
Ust-Kuyga,RU,70.02,135.6,1607623392,-38.76,78,22,5.64
Puerto Escondido,MX,15.85,-97.07,1607623392,82.4,74,20,8.05
Labytnangi,RU,66.66,66.42,1607623393,4.78,94,100,1.07
Codrington,AU,-38.27,141.97,1607623288,49.77,85,7,12.75
Port Lincoln,AU,-34.73,135.87,1607623393,60.51,74,99,22.93
Forbes,AU,-33.38,148.02,1607623393,62.01,60,2,5.99
Avesta,SE,60.15,16.17,1607623217,33.01,93,99,4.0
Valdivia,CL,-39.81,-73.25,1607623394,60.8,72,75,12.75
Otradnoye,RU,59.78,30.82,1607623394,19.99,67,0,11.18
Melipilla,CL,-33.7,-71.22,1607623146,75.99,40,0,16.11
Raja,SS,8.46,25.68,1607623394,80.15,21,2,4.59
Alekseyevsk,RU,57.84,108.35,1607623394,-12.89,87,99,3.53
Darhan,MN,49.49,105.92,1607623394,0.93,90,95,2.33
Timizart,DZ,36.8,4.27,1607623395,52.25,96,100,9.78
Paita,PE,-5.09,-81.11,1607623395,80.6,65,0,12.75
Rochester,US,43.15,-77.62,1607622750,43.0,60,75,11.41
Nara,JP,34.69,135.8,1607623115,51.01,71,64,2.21
La Rioja,ES,42.25,-2.5,1607623395,51.8,71,75,4.7
Ashland,US,40.82,-82.27,1607623396,48.0,70,1,9.17
Sarangani,PH,5.4,125.46,1607623396,84.24,76,76,14.79
Dhārchula,IN,29.85,80.53,1607623396,50.32,41,0,7.76
San Vicente,AR,-26.62,-54.13,1607623396,95.59,19,0,3.67
Parkes,AU,-33.13,148.18,1607623396,62.01,60,5,5.99
Pinotepa de Don Luis,MX,16.42,-97.92,1607623396,82.6,57,62,3.98
Paracatu,BR,-17.22,-46.87,1607623278,82.04,55,91,2.77
Derzhavīnsk,KZ,51.1,66.32,1607623397,6.6,95,96,2.3
Nyurba,RU,63.28,118.33,1607623397,-31.38,84,99,3.65
Frankfort,ZA,-27.27,28.48,1607623397,71.11,47,33,4.81
Góra Kalwaria,PL,51.98,21.22,1607623397,30.99,92,75,8.05
Belmonte,BR,-15.86,-38.88,1607623397,84.2,58,20,19.46
Dingle,PH,11.0,122.67,1607623291,75.76,88,8,5.08
Moose Factory,CA,51.26,-80.61,1607623398,32.0,98,90,3.36
Qaqortoq,GL,60.72,-46.03,1607623305,17.6,44,5,2.24
Kardymovo,RU,54.89,32.43,1607623398,21.79,92,54,9.86
Maués,BR,-3.38,-57.72,1607623398,89.13,58,24,6.08
Saiki,JP,32.95,131.9,1607623398,51.33,73,100,8.1
Havelock,US,34.88,-76.9,1607623159,61.0,58,1,11.41
Lucea,JM,18.45,-78.17,1607623398,82.99,78,75,14.99
Itō,JP,34.97,139.08,1607623399,45.0,85,14,7.23
Ust-Maya,RU,60.42,134.53,1607623399,-25.31,85,100,2.17
Faya,SA,18.39,42.45,1607623287,60.8,87,0,4.7
Sørland,NO,67.67,12.69,1607623399,42.8,81,75,6.93
Tolyatti,RU,53.53,49.35,1607623399,8.6,71,0,4.47
Netrakona,BD,24.88,90.72,1607623399,65.71,70,32,4.36
Zlobin,HR,45.29,14.65,1607623400,43.0,92,29,1.99
Qasigiannguit,GL,68.82,-51.19,1607623400,21.2,37,40,13.87
Dwārka,IN,22.24,68.97,1607623400,74.82,64,6,5.17
San Juan,AR,-31.54,-68.54,1607623365,105.78,13,1,18.68
Bjørkelangen,NO,59.88,11.57,1607623401,36.0,96,99,1.01
Morón,AR,-34.65,-58.62,1607623401,98.01,27,0,11.99
Kavieng,PG,-2.57,150.8,1607623289,81.19,78,98,1.86
Cherskiy,RU,68.75,161.3,1607623401,0.68,85,100,4.85
Luena,AO,-11.78,19.92,1607623401,64.44,95,100,4.79
Moerai,PF,-22.43,-151.33,1607623401,78.98,73,5,4.45
Mianwali,PK,32.57,71.53,1607623401,60.3,49,0,2.62
Loa Janan,ID,-0.58,117.09,1607623402,74.28,93,64,0.63
Vélingara,SN,13.15,-14.12,1607623402,95.27,17,0,3.51
Juneau,US,58.3,-134.42,1607623402,37.0,86,90,5.82
Lata,PT,40.16,-8.33,1607623305,59.0,96,100,4.0
Birjand,IR,32.87,59.22,1607623402,37.4,69,40,4.7
Tumen,CN,42.97,129.84,1607623402,24.67,84,0,3.18
Sulangan,PH,11.14,123.72,1607623402,82.09,80,28,8.03
Itaueira,BR,-7.6,-43.03,1607623403,91.49,40,46,6.53
Beipiao,CN,41.79,120.78,1607623403,15.6,88,0,4.68
Albemarle,US,35.35,-80.2,1607623403,62.6,39,1,4.7
Acarí,PE,-15.43,-74.62,1607623403,82.38,38,52,11.39
Bani Walid,LY,31.76,13.99,1607623403,54.36,39,0,10.18
Trincomalee,LK,8.57,81.23,1607623403,79.07,76,31,11.12
Henties Bay,NA,-22.12,14.28,1607623296,64.99,80,3,9.37
Varhaug,NO,58.61,5.65,1607623403,42.8,70,75,9.17
Haines Junction,CA,60.75,-137.51,1607623404,5.0,84,100,0.31
Kokkola,FI,63.84,23.13,1607623404,28.0,86,20,5.82
Daru,PG,-9.08,143.21,1607623404,79.03,81,100,3.0
Vaijāpur,IN,19.92,74.73,1607623404,77.92,37,92,13.44
Riyadh,SA,24.69,46.72,1607623302,60.8,48,0,3.36
Taos,US,36.41,-105.57,1607623404,34.0,37,75,5.82
Liverpool,GB,53.41,-2.98,1607623232,46.4,87,75,16.11
Esik,KZ,43.36,77.45,1607623405,19.4,92,90,4.47
Kozachi Laheri,UA,46.7,32.98,1607623405,39.2,100,90,17.9
Half Moon Bay,US,37.46,-122.43,1607623342,57.99,76,75,7.76
Hvolsvollur,IS,63.75,-20.22,1607623405,44.6,87,90,24.16
Kargat,RU,55.2,80.28,1607623405,12.63,95,100,13.09
Joshīmath,IN,30.57,79.57,1607623406,41.04,53,6,6.69
Viedma,AR,-40.81,-63.0,1607623406,91.0,35,17,5.01
San Carlos,VE,9.66,-68.58,1607623406,86.0,64,67,4.52
